{ 
"type": "FeatureCollection",
"name": "bofood1",
"crs": { "type": "name", "properties": { "name": "urn:ogc:def:crs:OGC:1.3:CRS84" } },
"features": [
{ "type": "Feature", "properties": { "name": "Adey Abeba Ethiopian Restaurant", "address": "2123 E Union St", "city": "Seattle" }, "geometry": { "type": "Point", "coordinates": [ -122.3038292, 47.6127449 ] } },
{ "type": "Feature", "properties": { "name": "Agelgil Ethiopian Restaurant", "address": "2800 E Cherry St", "city": "Seattle" }, "geometry": { "type": "Point", "coordinates": [ -122.2959418, 47.6081898 ] } },
{ "type": "Feature", "properties": { "name": "Ahadu Ethiopian Restaurant", "address": "1508 NE 117th St", "city": "Seattle" }, "geometry": { "type": "Point", "coordinates": [ -122.3120596, 47.7141517 ] } },
{ "type": "Feature", "properties": { "name": "Amy�۪s Merkato", "address": "5710 Rainier Ave S", "city": "Seattle" }, "geometry": { "type": "Point", "coordinates": [ -122.2772443, 47.5508689 ] } },
{ "type": "Feature", "properties": { "name": "Angel City Deli", "address": "12621 Renton Ave S", "city": "Seattle" }, "geometry": { "type": "Point", "coordinates": [ -122.239903, 47.4907463 ] } },
{ "type": "Feature", "properties": { "name": "Bana Ethiopian and Eritrean Restaurant", "address": "4423 Rainier Ave S", "city": "Seattle" }, "geometry": { "type": "Point", "coordinates": [ -122.2882925, 47.5635544 ] } },
{ "type": "Feature", "properties": { "name": "Bananas Grill", "address": "4556 Martin Luther King Jr Way S", "city": "Seattle" }, "geometry": { "type": "Point", "coordinates": [ -122.2937675, 47.5620445 ] } },
{ "type": "Feature", "properties": { "name": "Cafe Campagne ", "address": "1600 Post Alley", "city": "Seattle" }, "geometry": { "type": "Point", "coordinates": [ -122.3415139, 47.6097535 ] } },
{ "type": "Feature", "properties": { "name": "Cafe Ibex", "address": "3219 Martin Luther King Jr Way S", "city": "Seattle" }, "geometry": { "type": "Point", "coordinates": [ -122.2974334, 47.5742596 ] } },
{ "type": "Feature", "properties": { "name": "Cafe Selam", "address": "2715 E Cherry St", "city": "Seattle" }, "geometry": { "type": "Point", "coordinates": [ -122.2970941, 47.6077983 ] } },
{ "type": "Feature", "properties": { "name": "Cafe Soleil", "address": "1400 34th Ave", "city": "Seattle" }, "geometry": { "type": "Point", "coordinates": [ -122.289178, 47.6131729 ] } },
{ "type": "Feature", "properties": { "name": "Catfish Corner Express", "address": "11805 Renton Ave S", "city": "Seattle" }, "geometry": { "type": "Point", "coordinates": [ -122.2474821, 47.4968913 ] } },
{ "type": "Feature", "properties": { "name": "Central Cafe and Juice Bar", "address": "2509 E Cherry St", "city": "Seattle" }, "geometry": { "type": "Point", "coordinates": [ -122.2994834, 47.6078273 ] } },
{ "type": "Feature", "properties": { "name": "Cheech and Changas", "address": "1534 Broadway", "city": "Seattle" }, "geometry": { "type": "Point", "coordinates": [ -122.3204409, 47.6150287 ] } },
{ "type": "Feature", "properties": { "name": "Chef Cafe", "address": "2200 S Jackson St", "city": "Seattle" }, "geometry": { "type": "Point", "coordinates": [ -122.3030635, 47.5995116 ] } },
{ "type": "Feature", "properties": { "name": "City Teriyaki", "address": "5400 Rainier Ave S", "city": "Seattle" }, "geometry": { "type": "Point", "coordinates": [ -122.2789562, 47.55324 ] } },
{ "type": "Feature", "properties": { "name": "Clean Greens Farm and Market", "address": "116 21st Ave #5912", "city": "Seattle" }, "geometry": { "type": "Point", "coordinates": [ -122.3048165, 47.6023924 ] } },
{ "type": "Feature", "properties": { "name": "Conscious Eatery", "address": "5620 6th Ave S", "city": "Seattle" }, "geometry": { "type": "Point", "coordinates": [ -122.3264009, 47.5520023 ] } },
{ "type": "Feature", "properties": { "name": "Corte Fino", "address": "6721 Martin Luther King Jr Way S", "city": "Seattle" }, "geometry": { "type": "Point", "coordinates": [ -122.2841001, 47.5419408 ] } },
{ "type": "Feature", "properties": { "name": "Delish Ethiopian Cuisine", "address": "5701 Rainier Ave S", "city": "Seattle" }, "geometry": { "type": "Point", "coordinates": [ -122.2778896, 47.5509893 ] } },
{ "type": "Feature", "properties": { "name": "Drae�۪s Lake Route Eatery", "address": "9261 57th Ave S", "city": "Seattle" }, "geometry": { "type": "Point", "coordinates": [ -122.2618612, 47.5198241 ] } },
{ "type": "Feature", "properties": { "name": "East African Imports & Restaurant", "address": "306 23rd Ave S #104", "city": "Seattle" }, "geometry": { "type": "Point", "coordinates": [ -122.301807, 47.6001137 ] } },
{ "type": "Feature", "properties": { "name": "Emerald City Fish & Chips", "address": "3756 Rainier Ave", "city": "Seattle" }, "geometry": { "type": "Point", "coordinates": [ -122.2905203, 47.5700567 ] } },
{ "type": "Feature", "properties": { "name": "Emma�۪s BBQ", "address": "5303 Rainier Ave S", "city": "Seattle" }, "geometry": { "type": "Point", "coordinates": [ -122.2805303, 47.5535569 ] } },
{ "type": "Feature", "properties": { "name": "Enat Ethiopian Restaurant", "address": "11546 15th Ave NE", "city": "Seattle" }, "geometry": { "type": "Point", "coordinates": [ -122.3120842, 47.7134882 ] } },
{ "type": "Feature", "properties": { "name": "Ezell�۪s Famous Chicken", "address": "2300 N 45th St #6906", "city": "Seattle" }, "geometry": { "type": "Point", "coordinates": [ -122.3308776, 47.6616543 ] } },
{ "type": "Feature", "properties": { "name": "Ezell�۪s Famous Chicken", "address": "501 23rd AVE", "city": "Seattle" }, "geometry": { "type": "Point", "coordinates": [ -122.3033476, 47.2500499 ] } },
{ "type": "Feature", "properties": { "name": "Ezell�۪s Famous Chicken", "address": "4436 Rainier Ave S", "city": "Seattle" }, "geometry": { "type": "Point", "coordinates": [ -122.2875146, 47.5630647 ] } },
{ "type": "Feature", "properties": { "name": "Fat�۪s Chicken & Waffles", "address": "2726 E Cherry St", "city": "Seattle" }, "geometry": { "type": "Point", "coordinates": [ -122.296447, 47.6081583 ] } },
{ "type": "Feature", "properties": { "name": "FOODArt", "address": "501 2nd Ave W", "city": "Seattle" }, "geometry": { "type": "Point", "coordinates": [ -122.3596787, 47.6234619 ] } },
{ "type": "Feature", "properties": { "name": "Geo's Cuban Bar & Grill", "address": "10515 Greenwood Ave N", "city": "Seattle" }, "geometry": { "type": "Point", "coordinates": [ -122.3559203, 47.7056357 ] } },
{ "type": "Feature", "properties": { "name": "Heaven Sent Fried Chicken", "address": "14330 Lake City Way NE", "city": "Seattle" }, "geometry": { "type": "Point", "coordinates": [ -122.2919692, 47.7328119 ] } },
{ "type": "Feature", "properties": { "name": "Island Soul Rum Bar & Soul Shack", "address": "4869 Rainier Ave S", "city": "Seattle" }, "geometry": { "type": "Point", "coordinates": [ -122.2854469, 47.5581315 ] } },
{ "type": "Feature", "properties": { "name": "Jebena Cafe", "address": "1510 NE 117th St", "city": "Seattle" }, "geometry": { "type": "Point", "coordinates": [ -122.3118583, 47.7142658 ] } },
{ "type": "Feature", "properties": { "name": "Joyce's Market And Cafe", "address": "2717 E Union St", "city": "Seattle" }, "geometry": { "type": "Point", "coordinates": [ -122.2965718, 47.6127042 ] } },
{ "type": "Feature", "properties": { "name": "JuneBaby", "address": "2122 NE 65th St", "city": "Seattle" }, "geometry": { "type": "Point", "coordinates": [ -122.3041882, 47.6759555 ] } },
{ "type": "Feature", "properties": { "name": "Jerk Shack", "address": "2510 1st Ave", "city": "Seattle" }, "geometry": { "type": "Point", "coordinates": [ -122.3490077, 47.6152398 ] } },
{ "type": "Feature", "properties": { "name": "Jones Barbeque", "address": "4417 Fauntleroy Way SW", "city": "Seattle" }, "geometry": { "type": "Point", "coordinates": [ -122.3777471, 47.5642711 ] } },
{ "type": "Feature", "properties": { "name": "Kezira Eritrean and Ethiopian Cuisine", "address": "5100 Rainier Ave S", "city": "Seattle" }, "geometry": { "type": "Point", "coordinates": [ -122.2832609, 47.5561177 ] } },
{ "type": "Feature", "properties": { "name": "King Philly Cheesesteaks", "address": "7820 Rainier Ave S, Unit A", "city": "Seattle" }, "geometry": { "type": "Point", "coordinates": [ -122.2695482, 47.5320103 ] } },
{ "type": "Feature", "properties": { "name": "La Teranga", "address": "4903 Rainier Ave S", "city": "Seattle" }, "geometry": { "type": "Point", "coordinates": [ -122.2853224, 47.5577135 ] } },
{ "type": "Feature", "properties": { "name": "Lil Red Takeout & Catering", "address": "4225 Rainier Ave S", "city": "Seattle" }, "geometry": { "type": "Point", "coordinates": [ -122.2888807, 47.5649057 ] } },
{ "type": "Feature", "properties": { "name": "Lucinda Grain Bar", "address": "2120 NE 65th St", "city": "Seattle" }, "geometry": { "type": "Point", "coordinates": [ -122.3042405, 47.6759354 ] } },
{ "type": "Feature", "properties": { "name": "Mama Sambusa's Small Kitchen", "address": "8300 Rainier Ave S", "city": "Seattle" }, "geometry": { "type": "Point", "coordinates": [ -122.2695441, 47.5293831 ] } },
{ "type": "Feature", "properties": { "name": "Marjorie", "address": "1412 E Union", "city": "Seattle" }, "geometry": { "type": "Point", "coordinates": [ -122.3135039, 47.6130756 ] } },
{ "type": "Feature", "properties": { "name": "Meskel Ethiopian Restaurant", "address": "2605 E Cherry St", "city": "Seattle" }, "geometry": { "type": "Point", "coordinates": [ -122.2985224, 47.6079001 ] } },
{ "type": "Feature", "properties": { "name": "Mety�۪s Events", "address": "3250 Airport Way", "city": "Seattle" }, "geometry": { "type": "Point", "coordinates": [ -122.321112, 47.5752041 ] } },
{ "type": "Feature", "properties": { "name": "Mojito", "address": "7545 Lake City Way NE", "city": "Seattle" }, "geometry": { "type": "Point", "coordinates": [ -122.3160792, 47.6843803 ] } },
{ "type": "Feature", "properties": { "name": "Momona Cafe & Restaurant", "address": "6754 Martin Luther King Jr Way S", "city": "Seattle" }, "geometry": { "type": "Point", "coordinates": [ -122.2827967, 47.5411752 ] } },
{ "type": "Feature", "properties": { "name": "Nate�۪s Wings & Waffles", "address": "1224 E Jefferson St", "city": "Seattle" }, "geometry": { "type": "Point", "coordinates": [ -122.3156688, 47.6063234 ] } },
{ "type": "Feature", "properties": { "name": "New Luck Toy", "address": "5905 California Ave SW", "city": "Seattle" }, "geometry": { "type": "Point", "coordinates": [ -122.3872854, 47.5501228 ] } },
{ "type": "Feature", "properties": { "name": "The Northlake Tavern & Pizza House", "address": "660 NE Northlake Way", "city": "Seattle" }, "geometry": { "type": "Point", "coordinates": [ -122.3213356, 47.654848 ] } },
{ "type": "Feature", "properties": { "name": "Osteria La Spiga", "address": "1429 12th Ave", "city": "Seattle" }, "geometry": { "type": "Point", "coordinates": [ -122.3170905, 47.6137672 ] } },
{ "type": "Feature", "properties": { "name": "Pam�۪s Kitchen", "address": "1715 N 45th St", "city": "Seattle" }, "geometry": { "type": "Point", "coordinates": [ -122.3366507, 47.6611635 ] } },
{ "type": "Feature", "properties": { "name": "Plum Bistro", "address": "1429 12th Ave", "city": "Seattle" }, "geometry": { "type": "Point", "coordinates": [ -122.3170905, 47.6137672 ] } },
{ "type": "Feature", "properties": { "name": "Plum Chopped", "address": "1419 12th Ave", "city": "Seattle" }, "geometry": { "type": "Point", "coordinates": [ -122.3169407, 47.6138152 ] } },
{ "type": "Feature", "properties": { "name": "Plum Pantry", "address": "305 Harrison St", "city": "Seattle" }, "geometry": { "type": "Point", "coordinates": [ -122.3556031, 47.6218477 ] } },
{ "type": "Feature", "properties": { "name": "Queen Sheba Ethiopian", "address": " 916 E John St", "city": "Seattle" }, "geometry": { "type": "Point", "coordinates": [ -122.3201365, 47.6201053 ] } },
{ "type": "Feature", "properties": { "name": "Quick Pack Food Mart", "address": "2616 S Jackson St", "city": "Seattle" }, "geometry": { "type": "Point", "coordinates": [ -122.2978279, 47.5994719 ] } },
{ "type": "Feature", "properties": { "name": "Ras Dashen Ethiopian Cuisine", "address": "2801 E Cherry St", "city": "Seattle" }, "geometry": { "type": "Point", "coordinates": [ -122.2956612, 47.6077785 ] } },
{ "type": "Feature", "properties": { "name": "Safari Njema", "address": "5041 Rainier Ave S", "city": "Seattle" }, "geometry": { "type": "Point", "coordinates": [ -122.2845187, 47.5559998 ] } },
{ "type": "Feature", "properties": { "name": "Salare", "address": "2404 NE 65th St", "city": "Seattle" }, "geometry": { "type": "Point", "coordinates": [ -122.3012043, 47.6760335 ] } },
{ "type": "Feature", "properties": { "name": "Scoop Du Jour Ice Creamery", "address": "4029 E Madison St", "city": "Seattle" }, "geometry": { "type": "Point", "coordinates": [ -122.280188, 47.634002 ] } },
{ "type": "Feature", "properties": { "name": "Seattle Chicken Express", "address": "3621 33rd Ave S", "city": "Seattle" }, "geometry": { "type": "Point", "coordinates": [ -122.2915097, 47.5709905 ] } },
{ "type": "Feature", "properties": { "name": "Simply Soulful", "address": "2915-B E Madison St", "city": "Seattle" }, "geometry": { "type": "Point", "coordinates": [ -122.2948426, 47.6242295 ] } },
{ "type": "Feature", "properties": { "name": "Soulful Dishes", "address": "1800 E Yesler Way", "city": "Seattle" }, "geometry": { "type": "Point", "coordinates": [ -122.3087078, 47.601831 ] } },
{ "type": "Feature", "properties": { "name": "Spud Fish & Chips", "address": "6860 E Green Lake Way N", "city": "Seattle" }, "geometry": { "type": "Point", "coordinates": [ -122.3269152, 47.6783353 ] } },
{ "type": "Feature", "properties": { "name": "Taste of the Caribbean", "address": "1212 E Jefferson St", "city": "Seattle" }, "geometry": { "type": "Point", "coordinates": [ -122.3159554, 47.606517 ] } },
{ "type": "Feature", "properties": { "name": "The Barbeque Pit", "address": "2000 23rd Ave S", "city": "Seattle" }, "geometry": { "type": "Point", "coordinates": [ -122.3024539, 47.5852381 ] } },
{ "type": "Feature", "properties": { "name": "The Comfort Zone", "address": "3016 Rainier Ave S", "city": "Seattle" }, "geometry": { "type": "Point", "coordinates": [ -122.297008, 47.5768664 ] } },
{ "type": "Feature", "properties": { "name": "The Original Philly�۪s", "address": "3019 Martin Luther King Jr Way", "city": "Seattle" }, "geometry": { "type": "Point", "coordinates": [ -122.2970319, 47.576243 ] } },
{ "type": "Feature", "properties": { "name": "Umami Kushi", "address": "9099 Seward Park Ave S, Unit 1", "city": "Seattle" }, "geometry": { "type": "Point", "coordinates": [ -122.2633892, 47.5204478 ] } },
{ "type": "Feature", "properties": { "name": "WingStop", "address": "2600 SW Barton St", "city": "Seattle" }, "geometry": { "type": "Point", "coordinates": [ -122.3667849, 47.5225441 ] } },
{ "type": "Feature", "properties": { "name": "WingStop", "address": "10002 Aurora Ave N", "city": "Seattle" }, "geometry": { "type": "Point", "coordinates": [ -122.3441797, 47.7022823 ] } },
{ "type": "Feature", "properties": { "name": "WingStop", "address": "3208 Rainier Ave S #101", "city": "Seattle" }, "geometry": { "type": "Point", "coordinates": [ -122.2952592, 47.5748196 ] } },
{ "type": "Feature", "properties": { "name": "Yusrah and Sabah Restaurant", "address": "7729 Rainier Ave S", "city": "Seattle" }, "geometry": { "type": "Point", "coordinates": [ -122.2703578, 47.532824 ] } },
{ "type": "Feature", "properties": { "name": "Zagol Ethiopian Restaurant", "address": "2722 E Cherry St", "city": "Seattle" }, "geometry": { "type": "Point", "coordinates": [ -122.296753, 47.6081699 ] } },
{ "type": "Feature", "properties": { "name": "Zobel Ethiopian Cuisine", "address": "1219 E Jefferson St", "city": "Seattle" }, "geometry": { "type": "Point", "coordinates": [ -122.3159425, 47.6059317 ] } }
]
}
